iata,name,location,latitude,longitude
FRA,Frankfurt Airport,"Frankfurt, Hesse, Germany",50.026,8.543
DEN,Denver International Airport,"Denver, Colorado, United States",39.862,-104.673
BKK,Suvarnabhumi Airport,"Bang Phli, Samut Prakan, Thailand",13.681,100.747
SYD,Sydney Kingsford-Smith Airport,"Sydney, New South Wales, Australia",-33.946,151.177
GRU,Sao Paulo-Guarulhos International Airport,"Guarulhos, Sao Paulo, Brazil",-23.432,-46.47
